[
    {
        "id": 1559969,
        "name": "Nghe An",
        "state": "Bac Trung Bo",
        "country": "VN",
        "coord": {
            "lon": 104.833328,
            "lat": 19.33333
        }
    },
    {
        "id": 1582436,
        "name": "Binh Phuoc",
        "state": "Dong Nam Bo",
        "country": "VN",
        "coord": {
            "lon": 106.916672,
            "lat": 11.53333
        }
    },
    {
        "id": 1559970,
        "name": "Ninh Binh",
        "state": "Dong Bang Song Hong",
        "country": "VN",
        "coord": {
            "lon": 105.833328,
            "lat": 20.25
        }
    },
    {
        "id": 1559971,
        "name": "Ninh Thuan",
        "state": "Nam Trung Bo",
        "country": "VN",
        "coord": {
            "lon": 108.833328,
            "lat": 11.75
        }
    },
    {
        "id": 1559972,
        "name": "Soc Trang",
        "state": "Dong Bang Song Cuu Long",
        "country": "VN",
        "coord": {
            "lon": 105.833328,
            "lat": 9.66667
        }
    },
    {
        "id": 1559975,
        "name": "Tra Vinh",
        "state": "Dong Bang Song Cuu Long",
        "country": "VN",
        "coord": {
            "lon": 106.25,
            "lat": 9.83333
        }
    },
    {
        "id": 1559976,
        "name": "Tuyen Quang",
        "state": "Dong Bac Bo",
        "country": "VN",
        "coord": {
            "lon": 105.25,
            "lat": 22.116671
        }
    },
    {
        "id": 1559977,
        "name": "Vinh Long",
        "state": "Dong Bang Song Cuu Long",
        "country": "VN",
        "coord": {
            "lon": 106.0,
            "lat": 10.16667
        }
    },
    {
        "id": 1559978,
        "name": "Yen Bai",
        "state": "Tay Bac Bo",
        "country": "VN",
        "coord": {
            "lon": 104.666672,
            "lat": 21.5
        }
    },
    {
        "id": 1562412,
        "name": "Lao Cai",
        "state": "Tay Bac Bo",
        "country": "VN",
        "coord": {
            "lon": 104.0,
            "lat": 22.33333
        }
    },
    {
        "id": 1562548,
        "name": "Vinh Phuc",
        "state": "Dong Bang Song Hong",
        "country": "VN",
        "coord": {
            "lon": 105.596672,
            "lat": 21.309999
        }
    },
    {
        "id": 1564676,
        "name": "Tien Giang",
        "state": "Dong Bang Song Cuu Long",
        "country": "VN",
        "coord": {
            "lon": 106.166672,
            "lat": 10.41667
        }
    },
    {
        "id": 1565022,
        "name": "Binh Duong",
        "state": "Dong Nam Bo",
        "country": "VN",
        "coord": {
            "lon": 106.650002,
            "lat": 10.96667
        }
    },
    {
        "id": 1565033,
        "name": "Hue",
        "state": "Bac Trung Bo",
        "country": "VN",
        "coord": {
            "lon": 107.583328,
            "lat": 16.33333
        }
    },
    {
        "id": 1565088,
        "name": "Kon Tum",
        "state": "Tay Nguyen",
        "country": "VN",
        "coord": {
            "lon": 107.916672,
            "lat": 14.75
        }
    },
    {
        "id": 1566083,
        "name": "Ho Chi Minh",
        "state": "Dong Nam Bo",
        "country": "VN",
        "coord": {
            "lon": 106.666672,
            "lat": 10.75
        }
    },
    {
        "id": 1566165,
        "name": "Thanh Hoa",
        "state": "Bac Trung Bo",
        "country": "VN",
        "coord": {
            "lon": 105.5,
            "lat": 20.0
        }
    },
    {
        "id": 1566319,
        "name": "Thai Nguyen",
        "state": "Dong Bac Bo",
        "country": "VN",
        "coord": {
            "lon": 105.84417,
            "lat": 21.592779
        }
    },
    {
        "id": 1566338,
        "name": "Thai Binh",
        "state": "Dong Bang Song Hong",
        "country": "VN",
        "coord": {
            "lon": 106.333328,
            "lat": 20.5
        }
    },
    {
        "id": 1566557,
        "name": "Tay Ninh",
        "state": "Dong Nam Bo",
        "country": "VN",
        "coord": {
            "lon": 106.166672,
            "lat": 11.33333
        }
    },
    {
        "id": 1567148,
        "name": "Quang Nam",
        "state": "Nam Trung Bo",
        "country": "VN",
        "coord": {
            "lon": 108.48333,
            "lat": 15.56667
        }
    },
    {
        "id": 1567643,
        "name": "Son La",
        "state": "Tay Bac Bo",
        "country": "VN",
        "coord": {
            "lon": 104.0,
            "lat": 21.16667
        }
    },
    {
        "id": 1568733,
        "name": "Quang Tri",
        "state": "Bac Trung Bo",
        "country": "VN",
        "coord": {
            "lon": 107.0,
            "lat": 16.75
        }
    },
    {
        "id": 1568758,
        "name": "Quang Ninh",
        "state": "Dong Bac Bo",
        "country": "VN",
        "coord": {
            "lon": 107.333328,
            "lat": 21.25
        }
    },
    {
        "id": 1568769,
        "name": "Quang Ngai",
        "state": "Nam Trung Bo",
        "country": "VN",
        "coord": {
            "lon": 108.666672,
            "lat": 15.0
        }
    },
    {
        "id": 1568839,
        "name": "Quang Binh",
        "state": "Bac Trung Bo",
        "country": "VN",
        "coord": {
            "lon": 106.333328,
            "lat": 17.5
        }
    },
    {
        "id": 1569805,
        "name": "Phu Yen",
        "state": "Nam Trung Bo",
        "country": "VN",
        "coord": {
            "lon": 109.166672,
            "lat": 13.16667
        }
    },
    {
        "id": 1570449,
        "name": "Ha Nam",
        "state": "Dong Bang Song Hong",
        "country": "VN",
        "coord": {
            "lon": 105.913887,
            "lat": 20.541109
        }
    },
    {
        "id": 1570815,
        "name": "Lai Chau",
        "state": "Tay Bac Bo",
        "country": "VN",
        "coord": {
            "lon": 103.349998,
            "lat": 22.533331
        }
    },
    {
        "id": 1572594,
        "name": "Hoa Binh",
        "state": "Tay Bac Bo",
        "country": "VN",
        "coord": {
            "lon": 105.25,
            "lat": 20.33333
        }
    },
    {
        "id": 1573517,
        "name": "Nam Dinh",
        "state": "Dong Bang Song Hong",
        "country": "VN",
        "coord": {
            "lon": 106.166672,
            "lat": 20.41667
        }
    },
    {
        "id": 1575788,
        "name": "Long An",
        "state": "Dong Bang Song Cuu Long",
        "country": "VN",
        "coord": {
            "lon": 106.166672,
            "lat": 10.66667
        }
    },
    {
        "id": 1576632,
        "name": "Lang Son",
        "state": "Dong Bac Bo",
        "country": "VN",
        "coord": {
            "lon": 106.5,
            "lat": 21.75
        }
    },
    {
        "id": 1577882,
        "name": "Lam Dong",
        "state": "Tay Nguyen",
        "country": "VN",
        "coord": {
            "lon": 108.333328,
            "lat": 11.5
        }
    },
    {
        "id": 1579008,
        "name": "Kien Giang",
        "state": "Dong Bang Song Cuu Long",
        "country": "VN",
        "coord": {
            "lon": 105.166672,
            "lat": 10.0
        }
    },
    {
        "id": 1579634,
        "name": "Khanh Hoa",
        "state": "Nam Trung Bo",
        "country": "VN",
        "coord": {
            "lon": 109.0,
            "lat": 12.33333
        }
    },
    {
        "id": 1580142,
        "name": "Hung Yen",
        "state": "Dong Bang Song Hong",
        "country": "VN",
        "coord": {
            "lon": 106.066673,
            "lat": 20.65
        }
    },
    {
        "id": 1580700,
        "name": "Ha Tinh",
        "state": "Bac Trung Bo",
        "country": "VN",
        "coord": {
            "lon": 105.75,
            "lat": 18.33333
        }
    },
    {
        "id": 1581030,
        "name": "Ha Giang",
        "state": "Dong Bac Bo",
        "country": "VN",
        "coord": {
            "lon": 105.0,
            "lat": 22.75
        }
    },
    {
        "id": 1581088,
        "name": "Gia Lai",
        "state": "Tay Nguyen",
        "country": "VN",
        "coord": {
            "lon": 108.25,
            "lat": 13.75
        }
    },
    {
        "id": 1581129,
        "name": "Ha Noi Capital",
        "state": "Dong Bang Song Hong",
        "country": "VN",
        "coord": {
            "lon": 105.883331,
            "lat": 21.116671
        }
    },
    {
        "id": 1581188,
        "name": "Can Tho",
        "state": "Dong Bang Song Cuu Long",
        "country": "VN",
        "coord": {
            "lon": 105.666672,
            "lat": 9.83333
        }
    },
    {
        "id": 1581297,
        "name": "Hai Phong",
        "state": "Dong Bang Song Hong",
        "country": "VN",
        "coord": {
            "lon": 106.583328,
            "lat": 20.83333
        }
    },
    {
        "id": 1581326,
        "name": "Hai Duong",
        "state": "Dong Bang Song Hong",
        "country": "VN",
        "coord": {
            "lon": 106.316673,
            "lat": 20.933331
        }
    },
    {
        "id": 1581882,
        "name": "Binh Thuan",
        "state": "Nam Trung Bo",
        "country": "VN",
        "coord": {
            "lon": 108.0,
            "lat": 11.08333
        }
    },
    {
        "id": 1582562,
        "name": "Dong Thap",
        "state": "Dong Bang Song Cuu Long",
        "country": "VN",
        "coord": {
            "lon": 105.666672,
            "lat": 10.66667
        }
    },
    {
        "id": 1582720,
        "name": "Dong Nai",
        "state": "Dong Nam Bo",
        "country": "VN",
        "coord": {
            "lon": 107.166672,
            "lat": 11.0
        }
    },
    {
        "id": 1583477,
        "name": "Dien Bien",
        "state": "Tay Bac Bo",
        "country": "VN",
        "coord": {
            "lon": 103.01667,
            "lat": 21.383329
        }
    },
    {
        "id": 1584169,
        "name": "Dak Lak",
        "state": "Tay Nguyen",
        "country": "VN",
        "coord": {
            "lon": 108.166672,
            "lat": 12.83333
        }
    },
    {
        "id": 1584534,
        "name": "Vung Tau",
        "state": "Dong Nam Bo",
        "country": "VN",
        "coord": {
            "lon": 107.25,
            "lat": 10.58333
        }
    },
    {
        "id": 1586182,
        "name": "Cao Bang",
        "state": "Dong Bac Bo",
        "country": "VN",
        "coord": {
            "lon": 106.0,
            "lat": 22.66667
        }
    },
    {
        "id": 1586443,
        "name": "Ca Mau",
        "state": "Dong Bang Song Cuu Long",
        "country": "VN",
        "coord": {
            "lon": 105.150002,
            "lat": 9.17694
        }
    },
    {
        "id": 1587871,
        "name": "Binh Dinh",
        "state": "Nam Trung Bo",
        "country": "VN",
        "coord": {
            "lon": 109.0,
            "lat": 14.16667
        }
    },
    {
        "id": 1587974,
        "name": "Ben Tre",
        "state": "Dong Bang Song Cuu Long",
        "country": "VN",
        "coord": {
            "lon": 106.5,
            "lat": 10.16667
        }
    },
    {
        "id": 1591449,
        "name": "Bac Ninh",
        "state": "Dong Bang Song Hong",
        "country": "VN",
        "coord": {
            "lon": 106.050003,
            "lat": 21.183331
        }
    },
    {
        "id": 1591474,
        "name": "Bac Lieu",
        "state": "Dong Bang Song Cuu Long",
        "country": "VN",
        "coord": {
            "lon": 105.724442,
            "lat": 9.285
        }
    },
    {
        "id": 1591527,
        "name": "Bac Giang",
        "state": "Dong Bac Bo",
        "country": "VN",
        "coord": {
            "lon": 106.199997,
            "lat": 21.26667
        }
    },
    {
        "id": 1591538,
        "name": "Bac Kan",
        "state": "Dong Bac Bo",
        "country": "VN",
        "coord": {
            "lon": 105.833328,
            "lat": 22.133329
        }
    },
    {
        "id": 1562820,
        "name": "Phu Tho",
        "state": "Dong Bac Bo",
        "country": "VN",
        "coord": {
            "lon": 105.430832,
            "lat": 21.301941
        }
    },
    {
        "id": 1580541,
        "name": "Da Nang",
        "state": "Nam Trung Bo",
        "country": "VN",
        "coord": {
            "lon": 108.334999,
            "lat": 15.87944
        }
    },
    {
        "id": 1594446,
        "name": "An Giang",
        "state": "Dong Bang Song Cuu Long",
        "country": "VN",
        "coord": {
            "lon": 105.166672,
            "lat": 10.5
        }
    }
]